[
 {
   "id": 1,
   "entiteProprietaire": "GRESY",
   "type": "Boutique / Point de Vente",
   "Adresse": "95 rue des grives",
   "codeP": 38920,
   "ville": "CROLLES",
   "lat": "45.2718827",
   "long": "5.8914758"
 },
 {
   "id": 2,
   "entiteProprietaire": "GRESY",
   "type": "Conteneur",
   "Adresse": "450 rue des sources",
   "codeP": 38920,
   "ville": "CROLLES",
   "lat": "45.2720623",
   "long": "5.8921077"
 },
 {
   "id": 3,
   "entiteProprietaire": "GRESY",
   "type": "Conteneur",
   "Adresse": "ZA LONGS PRES",
   "codeP": 38660,
   "ville": "LUMBIN",
   "lat": "45.302935604592264",
   "long": "5.906455993653367"
 },
 {
   "id": 4,
   "entiteProprietaire": "GRESY",
   "type": "Conteneur",
   "Adresse": "RD1090 rond point",
   "codeP": 38660,
   "ville": "LE TOUVET",
   "lat": "45.358153178937314",
   "long": "5.955213502807624"
 },
 {
   "id": 5,
   "entiteProprietaire": "GRESY",
   "type": "Conteneur",
   "Adresse": "parking",
   "codeP": 38660,
   "ville": "LE TOUVET",
   "lat": "45.3558769226",
   "long": "5.91809558868"
 },
 {
   "id": 6,
   "entiteProprietaire": "GRESY",
   "type": "Conteneur",
   "Adresse": "ZA DU BRESSON",
   "codeP": 38660,
   "ville": "LE TOUVET",
   "lat": "45.361549146561885",
   "long": "5.960807800293878"
 },
 {
   "id": 7,
   "entiteProprietaire": "GRESY",
   "type": "Conteneur",
   "Adresse": "LE CARRE  VEGA",
   "codeP": 38660,
   "ville": "LA TERRASSE",
   "lat": "45.315226732541014",
   "long": "5.923677253967298"
 },
 {
   "id": 8,
   "entiteProprietaire": "GRESY",
   "type": "Conteneur",
   "Adresse": "PLACE DE LA MAIRIE",
   "codeP": 38660,
   "ville": "LA TERRASSE",
   "lat": "45.323037389433665",
   "long": "5.930838746032691"
 },
 {
   "id": 9,
   "entiteProprietaire": "GRESY",
   "type": "Conteneur",
   "Adresse": "Parking du cimetičre",
   "codeP": 38570,
   "ville": "GONCELIN",
   "lat": "45.350254185872",
   "long": "5.977724069583"
 },
 {
   "id": 10,
   "entiteProprietaire": "GRESY",
   "type": "Conteneur",
   "Adresse": "Place de la GARE",
   "codeP": 38570,
   "ville": "GONCELIN",
   "lat": "45.341975002824995",
   "long": "5.974549293518976"
 },
 {
   "id": 11,
   "entiteProprietaire": "GRESY",
   "type": "Conteneur",
   "Adresse": "Parking Poulatičre",
   "codeP": 38330,
   "ville": "ST ISMIER",
   "lat": "45.25176357666704",
   "long": "5.83636317418825"
 },
 {
   "id": 12,
   "entiteProprietaire": "GRE'SY",
   "type": "Conteneur",
   "Adresse": "Route de Meylan",
   "codeP": 38330,
   "ville": "BIVIERS",
   "lat": "45.23773",
   "long": "5.8036"
 },
 {
   "id": 13,
   "entiteProprietaire": "GRE'SY",
   "type": "Conteneur",
   "Adresse": "Parking MOIDIEU",
   "codeP": 38330,
   "ville": "BIVIERS",
   "lat": "45.23793868288619",
   "long": "5.802965164188663"
 },
 {
   "id": 14,
   "entiteProprietaire": "GRE'SY",
   "type": "Conteneur",
   "Adresse": "17 avenue Joliot Curie",
   "codeP": 38920,
   "ville": "CROLLES",
   "lat": "45.2842115",
   "long": "5.8837615"
 },
 {
   "id": 15,
   "entiteProprietaire": "GRE'SY",
   "type": "Conteneur",
   "Adresse": "rue François Mitterrand",
   "codeP": 38920,
   "ville": "CROLLES",
   "lat": "45.278324",
   "long": "5.883496"
 },
 {
   "id": 16,
   "entiteProprietaire": "GRE'SY",
   "type": "Conteneur",
   "Adresse": "Av Amboise Croizat",
   "codeP": 38920,
   "ville": "CROLLES",
   "lat": "45.27639",
   "long": "5.873675"
 },
 {
   "id": 17,
   "entiteProprietaire": "GRE'SY",
   "type": "Conteneur",
   "Adresse": "Place de la Fontaine",
   "codeP": 38190,
   "ville": "LE CHAMP PRES FROGES",
   "lat": "45.27372989493328",
   "long": "5.925261008459529"
 },
 {
   "id": 18,
   "entiteProprietaire": "GRE'SY",
   "type": "Conteneur",
   "Adresse": "Place Fontenette",
   "codeP": 38660,
   "ville": "SAINT HILAIRE",
   "lat": "45.353735988445",
   "long": "5.9141416969101"
 },
 {
   "id": 19,
   "entiteProprietaire": "GRE'SY",
   "type": "Conteneur",
   "Adresse": "Place Robert Shuman",
   "codeP": 38330,
   "ville": "MONTBONNOT",
   "lat": "45.221927199030354",
   "long": "5.812753703041039"
 },
 {
   "id": 20,
   "entiteProprietaire": "GRE'SY",
   "type": "Conteneur",
   "Adresse": "RD1090",
   "codeP": 38330,
   "ville": "MONTBONNOT",
   "lat": "45.2255017900632",
   "long": "5.801358089904852"
 },
 {
   "id": 21,
   "entiteProprietaire": "GRESY",
   "type": "Conteneur",
   "Adresse": "Pres de l'Eau",
   "codeP": 38330,
   "ville": "MONTBONNOT",
   "lat": "45.22545149753904",
   "long": "5.818713119049107"
 },
 {
   "id": 22,
   "entiteProprietaire": "GRESY",
   "type": "Conteneur",
   "Adresse": ",RD1090 FaceSuperU",
   "codeP": 38330,
   "ville": "MONTBONNOT",
   "lat": "45.23893661697145",
   "long": "5.818370342254639"
 },
 {
   "id": 23,
   "entiteProprietaire": "GRESY",
   "type": "Conteneur",
   "Adresse": "Av. du Grésivaudan",
   "codeP": 38570,
   "ville": "TENCIN",
   "lat": "45.30125662524121",
   "long": "5.952141476135239"
 },
 {
   "id": 24,
   "entiteProprietaire": "GRESY",
   "type": "Conteneur",
   "Adresse": "Parking Bériot",
   "codeP": 38330,
   "ville": "ST ISMIER",
   "lat": "45.2413",
   "long": "5.82147"
 },
 {
   "id": 25,
   "entiteProprietaire": "GRESY",
   "type": "Conteneur",
   "Adresse": "Rue ambroise Coizat Face au LIDL",
   "codeP": 38920,
   "ville": "CROLLES",
   "lat": "45.2743429",
   "long": "5.884021"
 },
 {
   "id": 26,
   "entiteProprietaire": "GRESY",
   "type": "Conteneur",
   "Adresse": "Centre Village",
   "codeP": 38920,
   "ville": "CROLLES",
   "lat": "45.2835755",
   "long": "5.8817673"
 },
 {
   "id": 27,
   "entiteProprietaire": "GRESY",
   "type": "Conteneur",
   "Adresse": "RD1090",
   "codeP": 38920,
   "ville": "CROLLES",
   "lat": "45.298817",
   "long": "5.899412"
 },
 {
   "id": 28,
   "entiteProprietaire": "GRESY",
   "type": "Conteneur",
   "Adresse": "Parking",
   "codeP": 38330,
   "ville": "MONTBONNOT",
   "lat": "45.22880944280169",
   "long": "5.817472113800022"
 },
 {
   "id": 29,
   "entiteProprietaire": "GRESY",
   "type": "Conteneur",
   "Adresse": "Parking",
   "codeP": 38330,
   "ville": "MONTBONNOT",
   "lat": "45.22537173854217",
   "long": "5.810011031677277"
 },
 {
   "id": 30,
   "entiteProprietaire": "GRESY",
   "type": "Boutique / Point de Vente",
   "Adresse": "Rue de l'abergement",
   "codeP": 38660,
   "ville": "LE TOUVET",
   "lat": "45.36158763317164",
   "long": "5.962285238098161"
 },
 {
   "id": 31,
   "entiteProprietaire": "GRESY",
   "type": "Conteneur",
   "Adresse": "Rue des chevalličres",
   "codeP": 38330,
   "ville": "BIVIERS",
   "lat": "45.244604238451316",
   "long": "5.807319671441633"
 },
 {
   "id": 32,
   "entiteProprietaire": "GRESY",
   "type": "Conteneur",
   "Adresse": "RUE DE L'EGLISE",
   "codeP": 38330,
   "ville": "BIVIERS",
   "lat": "45.23738006575658",
   "long": "5.796959126428192"
 },
 {
   "id": 33,
   "entiteProprietaire": "GRE'SY",
   "type": "Conteneur",
   "Adresse": "ESPACE BELLE ETOILE",
   "codeP": 38920,
   "ville": "CROLLES",
   "lat": "45.2732554",
   "long": "5.893464"
 },
 {
   "id": 34,
   "entiteProprietaire": "GRESY",
   "type": "Conteneur",
   "Adresse": "chemin du Mollard",
   "codeP": 38420,
   "ville": "SAINT JEAN LE VIEUX",
   "lat": "45.2090669963839",
   "long": "5.87355996560666"
 },
 {
   "id": 35,
   "entiteProprietaire": "GRESY",
   "type": "Conteneur",
   "Adresse": "Chemin de NAYSORD",
   "codeP": 38420,
   "ville": "SAINT JEAN LE VIEUX",
   "lat": "45.21117043393702",
   "long": "5.883317470550537"
 },
 {
   "id": 36,
   "entiteProprietaire": "GRESY",
   "type": "Conteneur",
   "Adresse": "Parking covoiturage",
   "codeP": 38190,
   "ville": "BERNIN",
   "lat": "45.26369865544158",
   "long": "5.87568473815918"
 },
 {
   "id": 37,
   "entiteProprietaire": "GRESY",
   "type": "Conteneur",
   "Adresse": "RD 1090",
   "codeP": 38190,
   "ville": "BERNIN",
   "lat": "45.271662994818",
   "long": "5.868973062040709"
 },
 {
   "id": 38,
   "entiteProprietaire": "GRE'SY",
   "type": "Conteneur",
   "Adresse": "RD 1090",
   "codeP": 38660,
   "ville": "LUMBIN",
   "lat": "45.306326671927145",
   "long": "5.911487512791382"
 },
 {
   "id": 39,
   "entiteProprietaire": "GRESY",
   "type": "Conteneur",
   "Adresse": "rue de bresson",
   "codeP": 38660,
   "ville": "LE TOUVET",
   "lat": "45.363369",
   "long": "5.957192"
 },
 {
   "id": 40,
   "entiteProprietaire": "GRESY",
   "type": "Conteneur",
   "Adresse": "62 rue Aristide Berges",
   "codeP": 38190,
   "ville": "LANCEY",
   "lat": "45.2339931",
   "long": "5.8822271"
 },
 {
   "id": 41,
   "entiteProprietaire": "GRESY",
   "type": "Conteneur",
   "Adresse": "rue du clos",
   "codeP": 38580,
   "ville": "ALLEVARD",
   "lat": "45.392642",
   "long": "6.070483"
 },
 {
   "id": 42,
   "entiteProprietaire": "GRESY",
   "type": "Conteneur",
   "Adresse": "place de Verdun",
   "codeP": 38580,
   "ville": "ALLEVARD",
   "lat": "45.395388",
   "long": "6.076077"
 },
 {
   "id": 43,
   "entiteProprietaire": "GRESY",
   "type": "Conteneur",
   "Adresse": "chemin de la touviere",
   "codeP": 38580,
   "ville": "ALLEVARD",
   "lat": "45.401181",
   "long": "6.079395"
 },
 {
   "id": 44,
   "entiteProprietaire": "GRESY",
   "type": "Conteneur",
   "Adresse": "Pkg salle des fętes",
   "codeP": 38830,
   "ville": "CRETS EN BELLEDONNE",
   "lat": "45.2233",
   "long": "6.0255"
 },
 {
   "id": 45,
   "entiteProprietaire": "GRESY",
   "type": "Conteneur",
   "Adresse": "75 rue des ecoles",
   "codeP": 38830,
   "ville": "CRETS EN BELLEDONNE",
   "lat": "45.3731919",
   "long": "6.0470143"
 },
 {
   "id": 46,
   "entiteProprietaire": "GRESY",
   "type": "Conteneur",
   "Adresse": "le rapin",
   "codeP": 38830,
   "ville": "CRETS EN BELLEDONNE",
   "lat": "45.37189893097",
   "long": "6.0469363792568"
 },
 {
   "id": 47,
   "entiteProprietaire": "GRESY",
   "type": "Conteneur",
   "Adresse": "place du stade",
   "codeP": 38830,
   "ville": "CRETS EN BELLEDONNE",
   "lat": "45.376649",
   "long": "6.050942"
 },
 {
   "id": 48,
   "entiteProprietaire": "GRESY",
   "type": "Conteneur",
   "Adresse": "route departementale 525",
   "codeP": 38830,
   "ville": "CRETS EN BELLEDONNE",
   "lat": "45.367654",
   "long": "6.040884"
 },
 {
   "id": 49,
   "entiteProprietaire": "GRE'SY",
   "type": "Conteneur",
   "Adresse": "rue du Grésivaudan",
   "codeP": 73800,
   "ville": "LAISSAUD",
   "lat": "45.445347",
   "long": "6.034571"
 },
 {
   "id": 50,
   "entiteProprietaire": "GRESY",
   "type": "Boutique / Point de Vente",
   "Adresse": "79 rue du stade",
   "codeP": 73800,
   "ville": "LAISSAUD",
   "lat": "45.445578",
   "long": "6.034723"
 },
 {
   "id": 51,
   "entiteProprietaire": "GRESY",
   "type": "Boutique / Point de Vente",
   "Adresse": "centre cial de Uexpress",
   "codeP": 38570,
   "ville": "TENCIN",
   "lat": "45.3016137072187",
   "long": "5.9522100227538886"
 },
 {
   "id": 52,
   "entiteProprietaire": "GRESY",
   "type": "Conteneur",
   "Adresse": "SAMSE",
   "codeP": 38130,
   "ville": "ECHIROLLES",
   "lat": "45.16024462093739",
   "long": "5.714007315344247"
 },
 {
   "id": 53,
   "entiteProprietaire": "GRESY",
   "type": "Conteneur",
   "Adresse": "Aux roty",
   "codeP": 38660,
   "ville": "LE TOUVET",
   "lat": "45.359267",
   "long": "5.977688"
 },
 {
   "id": 54,
   "entiteProprietaire": "GRESY",
   "type": "Conteneur",
   "Adresse": "rue du charmillon",
   "codeP": 38660,
   "ville": "LE TOUVET",
   "lat": "45.35099",
   "long": "5.947729"
 },
 {
   "id": 55,
   "entiteProprietaire": "GRESY",
   "type": "Conteneur",
   "Adresse": "Rue paul cretien",
   "codeP": 38420,
   "ville": "LE VERSOUD",
   "lat": "45.212944",
   "long": "5.858643"
 },
 {
   "id": 56,
   "entiteProprietaire": "GRESY",
   "type": "Conteneur",
   "Adresse": "Avenue Aristide Bergčs, ZAC des Chenevičres",
   "codeP": 38420,
   "ville": "DOMENE",
   "lat": "45.206774",
   "long": "5.82799"
 },
 {
   "id": 57,
   "entiteProprietaire": "GRESY",
   "type": "Boutique / Point de Vente",
   "Adresse": "62 rue Aristide Berges",
   "codeP": 38190,
   "ville": "LANCEY",
   "lat": "45.2339931",
   "long": "5.8822271"
 },
 {
   "id": 58,
   "entiteProprietaire": "GRESY",
   "type": "Conteneur",
   "Adresse": "Route de Montouvrard",
   "codeP": 38580,
   "ville": "ALLEVARD",
   "lat": "45.387541",
   "long": "6.068545"
 },
 {
   "id": 59,
   "entiteProprietaire": "GRESY",
   "type": "Conteneur",
   "Adresse": "Rue de Belledonne",
   "codeP": 38920,
   "ville": "CROLLES",
   "lat": "45.271308",
   "long": "5.892955"
 }
]